[{"location": {"region": "Shanghai", "city": "Shanghai", "country": "China"}, "number": "13212D", "GSI1PK": "SEASON#197", "country": "China", "PK": "TEAM#13212D", "organization": "Concordia International School Shanghai", "SK": "METADATA", "updated_at": "2026-02-11T20:27:54.834592+00:00", "grade": "High School", "name": "SixSeven", "skills": {"combined_score": 219, "rank": 1, "driver": 119, "programming": 100}, "GSI1SK": "RANK#0001#TEAM#13212D", "region": "Shanghai"}, {"GSI1PK": "SEASON#197", "region": "California", "grade": "Middle School", "country": "United States", "GSI1SK": "RANK#0001#TEAM#3588Y", "SK": "METADATA", "location": {"region": "California", "city": "Torrance", "country": "United States"}, "skills": {"combined_score": 229, "rank": 1, "driver": 116, "programming": 113}, "name": "Cyber Spacers", "updated_at": "2026-02-11T20:27:53.896797+00:00", "number": "3588Y", "organization": "Edubot Inc.", "PK": "TEAM#3588Y"}, {"GSI1PK": "SEASON#197", "region": "California", "GSI1SK": "RANK#0002#TEAM#1590A", "grade": "Middle School", "country": "United States", "SK": "METADATA", "organization": "Innovagine Robotics", "name": "Blue Army", "number": "1590A", "location": {"region": "California", "city": "Rancho Cucamonga", "country": "United States"}, "PK": "TEAM#1590A", "updated_at": "2026-02-11T20:27:53.917070+00:00", "skills": {"combined_score": 189, "rank": 2, "driver": 101, "programming": 88}}, {"skills": {"combined_score": 217, "rank": 2, "driver": 115, "programming": 102}, "GSI1PK": "SEASON#197", "region": "California", "updated_at": "2026-02-11T20:27:54.849997+00:00", "number": "3588X", "GSI1SK": "RANK#0002#TEAM#3588X", "PK": "TEAM#3588X", "country": "United States", "SK": "METADATA", "location": {"region": "California", "city": "Torrance", "country": "United States"}, "grade": "High School", "name": "Galaxy", "organization": "Edubot Inc."}, {"GSI1PK": "SEASON#197", "PK": "TEAM#16099A", "updated_at": "2026-02-11T20:27:54.856051+00:00", "country": "United States", "number": "16099A", "organization": "KG Computech", "SK": "METADATA", "name": "Overclock", "skills": {"combined_score": 217, "rank": 3, "driver": 118, "programming": 99}, "region": "New York", "grade": "High School", "GSI1SK": "RANK#0003#TEAM#16099A", "location": {"region": "New York", "city": "Flushing", "country": "United States"}}, {"location": {"region": "Shanghai", "city": "Shanghai", "country": "China"}, "GSI1PK": "SEASON#197", "country": "China", "grade": "Middle School", "SK": "METADATA", "skills": {"combined_score": 182, "rank": 3, "driver": 91, "programming": 91}, "number": "88825H", "GSI1SK": "RANK#0003#TEAM#88825H", "updated_at": "2026-02-11T20:27:53.929942+00:00", "name": "ROACH", "PK": "TEAM#88825H", "region": "Shanghai", "organization": "Shanghai Koller Foreign Language School"}, {"updated_at": "2026-02-11T20:27:53.936211+00:00", "GSI1PK": "SEASON#197", "PK": "TEAM#252A", "name": "And I Wonder", "grade": "Middle School", "SK": "METADATA", "country": "Canada", "location": {"region": "Ontario", "city": "Richmond Hill", "country": "Canada"}, "number": "252A", "region": "Ontario", "GSI1SK": "RANK#0004#TEAM#252A", "skills": {"combined_score": 181, "rank": 4, "driver": 91, "programming": 90}, "organization": "I Wonder Nexus"}, {"skills": {"combined_score": 215, "rank": 4, "driver": 111, "programming": 104}, "location": {"region": "Nevada", "city": "Overton", "country": "United States"}, "GSI1PK": "SEASON#197", "PK": "TEAM#89040B", "country": "United States", "SK": "METADATA", "number": "89040B", "grade": "High School", "GSI1SK": "RANK#0004#TEAM#89040B", "name": "Dread Pirates", "region": "Nevada", "organization": "MOAPA VALLEY HIGH SCHOOL", "updated_at": "2026-02-11T20:27:54.870014+00:00"}, {"region": "Alabama", "GSI1PK": "SEASON#197", "grade": "Middle School", "country": "United States", "GSI1SK": "RANK#0005#TEAM#2577X", "SK": "METADATA", "skills": {"combined_score": 181, "rank": 5, "driver": 95, "programming": 86}, "name": "Funky Monkeys", "number": "2577X", "organization": "Monkey Business Incorporated", "location": {"region": "Alabama", "city": "Vestavia Hills", "country": "United States"}, "updated_at": "2026-02-11T20:27:53.942848+00:00", "PK": "TEAM#2577X"}, {"name": "Occam's Chainsaw", "GSI1PK": "SEASON#197", "GSI1SK": "RANK#0005#TEAM#47874J", "organization": "Squalicum High School", "country": "United States", "SK": "METADATA", "skills": {"combined_score": 215, "rank": 5, "driver": 113, "programming": 102}, "region": "Washington", "grade": "High School", "PK": "TEAM#47874J", "updated_at": "2026-02-11T20:27:54.876661+00:00", "location": {"region": "Washington", "city": "Bellingham", "country": "United States"}, "number": "47874J"}, {"GSI1PK": "SEASON#197", "grade": "Middle School", "SK": "METADATA", "organization": "West Vancouver School District", "country": "Canada", "skills": {"combined_score": 181, "rank": 6, "driver": 102, "programming": 79}, "name": "Ten Ton Robotics", "updated_at": "2026-02-11T20:27:53.949809+00:00", "GSI1SK": "RANK#0006#TEAM#10012Y", "location": {"region": "British Columbia", "city": "West Vancouver", "country": "Canada"}, "number": "10012Y", "region": "British Columbia", "PK": "TEAM#10012Y"}, {"organization": "Techblazers", "PK": "TEAM#16610A", "GSI1PK": "SEASON#197", "GSI1SK": "RANK#0006#TEAM#16610A", "number": "16610A", "SK": "METADATA", "country": "Canada", "updated_at": "2026-02-11T20:27:54.882992+00:00", "location": {"region": "Ontario", "city": "Richmond Hill", "country": "Canada"}, "grade": "High School", "region": "Ontario", "name": "Snacky Cakes", "skills": {"combined_score": 213, "rank": 6, "driver": 117, "programming": 96}}, {"skills": {"combined_score": 208, "rank": 7, "driver": 116, "programming": 92}, "GSI1PK": "SEASON#197", "updated_at": "2026-02-11T20:27:54.889885+00:00", "SK": "METADATA", "country": "Canada", "GSI1SK": "RANK#0007#TEAM#3150A", "location": {"region": "Ontario", "city": "Richmond Hill", "country": "Canada"}, "name": "Silver Owl", "number": "3150A", "grade": "High School", "region": "Ontario", "PK": "TEAM#3150A", "organization": "Silver Owl Robotics Inc."}, {"GSI1PK": "SEASON#197", "country": "China", "grade": "Middle School", "region": "Anhui", "PK": "TEAM#45000A", "SK": "METADATA", "number": "45000A", "location": {"region": "Anhui", "city": "Hefei", "country": "China"}, "updated_at": "2026-02-11T20:27:53.955400+00:00", "skills": {"combined_score": 180, "rank": 7, "driver": 92, "programming": 88}, "GSI1SK": "RANK#0007#TEAM#45000A", "name": "HeFei X-Free A", "organization": "Hefei No.45 middle school"}, {"GSI1SK": "RANK#0008#TEAM#8977A", "GSI1PK": "SEASON#197", "PK": "TEAM#8977A", "country": "China", "organization": "Shanghai Shibei Junior High School", "location": {"region": "Shanghai", "city": "\u4e0a\u6d77", "country": "China"}, "name": "\u4e0a\u6d77\u5e02\u5e02\u5317\u521d\u7ea7\u4e2d\u5b66\uff06\u8fbe\u7f57\u6377\u6d3e\u5b66\u9662\u8054\u961f", "SK": "METADATA", "grade": "High School", "number": "8977A", "updated_at": "2026-02-11T20:27:54.896260+00:00", "skills": {"combined_score": 203, "rank": 8, "driver": 119, "programming": 84}, "region": "Shanghai"}, {"location": {"region": "Shanghai", "city": "Shanghai", "country": "China"}, "updated_at": "2026-02-11T20:27:53.963915+00:00", "GSI1PK": "SEASON#197", "country": "China", "grade": "Middle School", "SK": "METADATA", "organization": "ShangHai RuiGuan Robotics Activity Center", "number": "9123Y", "name": "Shanghai RuiGuan Team 9123Y", "skills": {"combined_score": 179, "rank": 8, "driver": 93, "programming": 86}, "GSI1SK": "RANK#0008#TEAM#9123Y", "region": "Shanghai", "PK": "TEAM#9123Y"}, {"number": "55555A", "GSI1SK": "RANK#0009#TEAM#55555A", "GSI1PK": "SEASON#197", "country": "China", "grade": "Middle School", "region": "Anhui", "location": {"region": "Anhui", "city": "Anhui", "country": "China"}, "SK": "METADATA", "PK": "TEAM#55555A", "name": "HeFei USTC A", "organization": "X.USTC", "skills": {"combined_score": 178, "rank": 9, "driver": 94, "programming": 84}, "updated_at": "2026-02-11T20:27:53.974698+00:00"}, {"location": {"region": null, "city": "Hung Yen", "country": "Vietnam"}, "GSI1PK": "SEASON#197", "GSI1SK": "RANK#0009#TEAM#86669A", "name": "EDS_Bunreal", "updated_at": "2026-02-11T20:27:54.901749+00:00", "country": "Vietnam", "organization": "Edison Schools", "SK": "METADATA", "grade": "High School", "skills": {"combined_score": 202, "rank": 9, "driver": 110, "programming": 92}, "PK": "TEAM#86669A", "number": "86669A", "region": null}, {"organization": "Radiant", "GSI1PK": "SEASON#197", "region": "California", "GSI1SK": "RANK#0010#TEAM#2429A", "grade": "Middle School", "country": "United States", "skills": {"combined_score": 178, "rank": 10, "driver": 98, "programming": 80}, "SK": "METADATA", "PK": "TEAM#2429A", "updated_at": "2026-02-11T20:27:53.980810+00:00", "location": {"region": "California", "city": "Irvine", "country": "United States"}, "number": "2429A", "name": "Blockbot - Radiant"}, {"skills": {"combined_score": 201, "rank": 10, "driver": 101, "programming": 100}, "GSI1PK": "SEASON#197", "region": "California", "location": {"region": "California", "city": "Fullerton", "country": "United States"}, "number": "98601Y", "country": "United States", "organization": "TROY HIGH NJROTC", "updated_at": "2026-02-11T20:27:54.910021+00:00", "SK": "METADATA", "PK": "TEAM#98601Y", "grade": "High School", "GSI1SK": "RANK#0010#TEAM#98601Y", "name": "Atlantis (Troy)"}, {"updated_at": "2026-02-11T20:27:54.916510+00:00", "GSI1PK": "SEASON#197", "number": "6842K", "organization": "PARK TUDOR SCHOOL", "location": {"region": "Indiana", "city": "Indianapolis", "country": "United States"}, "country": "United States", "PK": "TEAM#6842K", "name": "Killer Instinct", "GSI1SK": "RANK#0011#TEAM#6842K", "SK": "METADATA", "region": "Indiana", "grade": "High School", "skills": {"combined_score": 201, "rank": 11, "driver": 102, "programming": 99}}, {"GSI1PK": "SEASON#197", "region": "California", "grade": "Middle School", "country": "United States", "updated_at": "2026-02-11T20:27:53.989876+00:00", "organization": "ORCHARD HILLS", "SK": "METADATA", "number": "8838D", "PK": "TEAM#8838D", "GSI1SK": "RANK#0011#TEAM#8838D", "location": {"region": "California", "city": "Irvine", "country": "United States"}, "skills": {"combined_score": 178, "rank": 11, "driver": 103, "programming": 75}, "name": "Robohawks - Amirite"}, {"updated_at": "2026-02-11T20:27:54.922716+00:00", "GSI1PK": "SEASON#197", "region": "Oklahoma", "GSI1SK": "RANK#0012#TEAM#74074Y", "country": "United States", "organization": "Pioneer Robotics", "SK": "METADATA", "location": {"region": "Oklahoma", "city": "Stillwater", "country": "United States"}, "grade": "High School", "PK": "TEAM#74074Y", "skills": {"combined_score": 199, "rank": 12, "driver": 103, "programming": 96}, "number": "74074Y", "name": "Bamboozled"}, {"GSI1PK": "SEASON#197", "region": "California", "skills": {"combined_score": 177, "rank": 12, "driver": 91, "programming": 86}, "grade": "Middle School", "country": "United States", "SK": "METADATA", "organization": "Private", "location": {"region": "California", "city": "Fremont", "country": "United States"}, "name": "Rice Brothers", "PK": "TEAM#90696C", "updated_at": "2026-02-11T20:27:53.995807+00:00", "number": "90696C", "GSI1SK": "RANK#0012#TEAM#90696C"}, {"name": "Moonshot", "GSI1PK": "SEASON#197", "region": "California", "location": {"region": "California", "city": "North Hollywood ", "country": "United States"}, "organization": "robotics is ez", "grade": "Middle School", "country": "United States", "GSI1SK": "RANK#0013#TEAM#471B", "SK": "METADATA", "skills": {"combined_score": 176, "rank": 13, "driver": 96, "programming": 80}, "number": "471B", "PK": "TEAM#471B", "updated_at": "2026-02-11T20:27:54.001517+00:00"}, {"updated_at": "2026-02-11T20:27:54.929858+00:00", "region": "New Jersey", "GSI1PK": "SEASON#197", "country": "United States", "organization": "Millburn High School", "SK": "METADATA", "GSI1SK": "RANK#0013#TEAM#7405R", "number": "7405R", "grade": "High School", "location": {"region": "New Jersey", "city": "Millburn", "country": "United States"}, "PK": "TEAM#7405R", "skills": {"combined_score": 198, "rank": 13, "driver": 102, "programming": 96}, "name": "Millburn Riptide"}, {"updated_at": "2026-02-11T20:27:54.009817+00:00", "GSI1PK": "SEASON#197", "PK": "TEAM#1840A", "grade": "Middle School", "country": "United States", "SK": "METADATA", "skills": {"combined_score": 175, "rank": 14, "driver": 102, "programming": 73}, "name": "Eclipse", "region": "Washington", "organization": "Timberline Middle School", "GSI1SK": "RANK#0014#TEAM#1840A", "location": {"region": "Washington", "city": "Redmond", "country": "United States"}, "number": "1840A"}, {"updated_at": "2026-02-11T20:27:54.935789+00:00", "GSI1PK": "SEASON#197", "GSI1SK": "RANK#0014#TEAM#8931R", "number": "8931R", "country": "United States", "SK": "METADATA", "name": "V-Bots Arsenic", "region": "Washington", "location": {"region": "Washington", "city": "Lake Stevens", "country": "United States"}, "grade": "High School", "skills": {"combined_score": 197, "rank": 14, "driver": 99, "programming": 98}, "PK": "TEAM#8931R", "organization": "LAKE STEVENS SR HIGH SCHOOL"}, {"location": {"region": "Shanghai", "city": "Shanghai", "country": "China"}, "skills": {"combined_score": 174, "rank": 15, "driver": 98, "programming": 76}, "organization": "Shanghai Yongchang Private School", "GSI1PK": "SEASON#197", "country": "China", "grade": "Middle School", "GSI1SK": "RANK#0015#TEAM#8193D", "SK": "METADATA", "number": "8193D", "updated_at": "2026-02-11T20:27:54.015413+00:00", "name": "Shanghai Yongchang D", "PK": "TEAM#8193D", "region": "Shanghai"}, {"location": {"region": "Arizona", "city": "Chandler", "country": "United States"}, "PK": "TEAM#937X", "GSI1PK": "SEASON#197", "organization": "Team Aurora", "skills": {"combined_score": 193, "rank": 15, "driver": 90, "programming": 103}, "country": "United States", "SK": "METADATA", "number": "937X", "grade": "High School", "GSI1SK": "RANK#0015#TEAM#937X", "updated_at": "2026-02-11T20:27:54.949999+00:00", "name": "Aurora", "region": "Arizona"}, {"GSI1PK": "SEASON#197", "number": "1523C", "PK": "TEAM#1523C", "organization": "Steamoji", "country": "United States", "SK": "METADATA", "region": "Washington", "grade": "High School", "skills": {"combined_score": 193, "rank": 16, "driver": 98, "programming": 95}, "name": "Charisma", "GSI1SK": "RANK#0016#TEAM#1523C", "updated_at": "2026-02-11T20:27:54.957175+00:00", "location": {"region": "Washington", "city": "Bellevue ", "country": "United States"}}, {"location": {"region": "Shanghai", "city": "Shanghai", "country": "China"}, "GSI1PK": "SEASON#197", "country": "China", "grade": "Middle School", "name": "Alt+F4", "PK": "TEAM#88825B", "GSI1SK": "RANK#0016#TEAM#88825B", "SK": "METADATA", "number": "88825B", "skills": {"combined_score": 171, "rank": 16, "driver": 102, "programming": 69}, "updated_at": "2026-02-11T20:27:54.022116+00:00", "region": "Shanghai", "organization": "Shanghai Koller Foreign Language School"}, {"GSI1PK": "SEASON#197", "location": {"region": "Guangdong", "city": "Shenzhen", "country": "China"}, "skills": {"combined_score": 193, "rank": 17, "driver": 105, "programming": 88}, "country": "China", "name": "Hongyi STEM International Academy", "SK": "METADATA", "grade": "High School", "organization": "\u6df1\u5733\u5e02\u5f18\u6bc5\u9ad8\u7ea7\u4e2d\u5b66STEM\u56fd\u9645\u4e66\u9662", "number": "2815Z", "updated_at": "2026-02-11T20:27:54.963203+00:00", "region": "Guangdong", "PK": "TEAM#2815Z", "GSI1SK": "RANK#0017#TEAM#2815Z"}, {"GSI1PK": "SEASON#197", "GSI1SK": "RANK#0017#TEAM#3150D", "grade": "Middle School", "PK": "TEAM#3150D", "SK": "METADATA", "country": "Canada", "location": {"region": "Ontario", "city": "Richmond Hill", "country": "Canada"}, "region": "Ontario", "updated_at": "2026-02-11T20:27:54.029823+00:00", "skills": {"combined_score": 171, "rank": 17, "driver": 102, "programming": 69}, "name": "Double Or Nothing", "number": "3150D", "organization": "Silver Owl Robotics Inc."}, {"name": "Limited Edition", "organization": "1698", "GSI1PK": "SEASON#197", "number": "1698A", "region": "California", "location": {"region": "California", "city": "Los Altos", "country": "United States"}, "grade": "Middle School", "country": "United States", "SK": "METADATA", "skills": {"combined_score": 166, "rank": 18, "driver": 82, "programming": 84}, "PK": "TEAM#1698A", "GSI1SK": "RANK#0018#TEAM#1698A", "updated_at": "2026-02-11T20:27:54.035698+00:00"}, {"name": "Garage Productions", "GSI1PK": "SEASON#197", "region": "California", "PK": "TEAM#95111V", "GSI1SK": "RANK#0018#TEAM#95111V", "location": {"region": "California", "city": "Santa Clara", "country": "United States"}, "updated_at": "2026-02-11T20:27:54.969867+00:00", "country": "United States", "number": "95111V", "SK": "METADATA", "skills": {"combined_score": 192, "rank": 18, "driver": 96, "programming": 96}, "organization": "Hackathon4Kids", "grade": "High School"}, {"organization": "SVRA", "GSI1PK": "SEASON#197", "region": "California", "skills": {"combined_score": 192, "rank": 19, "driver": 102, "programming": 90}, "updated_at": "2026-02-11T20:27:54.975720+00:00", "country": "United States", "SK": "METADATA", "name": "Whiteout", "grade": "High School", "PK": "TEAM#77787W", "location": {"region": "California", "city": "Dublin", "country": "United States"}, "GSI1SK": "RANK#0019#TEAM#77787W", "number": "77787W"}, {"organization": "RoboPlanet Education and Community Society", "name": "Alt-W", "GSI1PK": "SEASON#197", "grade": "Middle School", "skills": {"combined_score": 166, "rank": 19, "driver": 87, "programming": 79}, "location": {"region": "British Columbia", "city": "Richmond", "country": "Canada"}, "SK": "METADATA", "country": "Canada", "number": "9568W", "PK": "TEAM#9568W", "GSI1SK": "RANK#0019#TEAM#9568W", "updated_at": "2026-02-11T20:27:54.041439+00:00", "region": "British Columbia"}, {"location": {"region": "Shanghai", "city": "Shanghai", "country": "China"}, "number": "3219A", "GSI1SK": "RANK#0020#TEAM#3219A", "GSI1PK": "SEASON#197", "country": "China", "grade": "Middle School", "updated_at": "2026-02-11T20:27:54.049953+00:00", "SK": "METADATA", "PK": "TEAM#3219A", "name": "SHSID Team A", "organization": "Shanghai High School International Division", "skills": {"combined_score": 166, "rank": 20, "driver": 91, "programming": 75}, "region": "Shanghai"}, {"PK": "TEAM#50922T", "updated_at": "2026-02-11T20:27:54.982144+00:00", "GSI1PK": "SEASON#197", "skills": {"combined_score": 191, "rank": 20, "driver": 102, "programming": 89}, "country": "Vietnam", "SK": "METADATA", "name": "LSTS MAKO MANIACS", "number": "50922T", "grade": "High School", "organization": "Lawrence S.Ting School", "GSI1SK": "RANK#0020#TEAM#50922T", "location": {"region": null, "city": "Ho Chi Minh City", "country": "Vietnam"}, "region": null}, {"PK": "TEAM#10B", "GSI1PK": "SEASON#197", "name": "Exothermic Burnout", "number": "10B", "country": "United States", "SK": "METADATA", "GSI1SK": "RANK#0021#TEAM#10B", "location": {"region": "Washington", "city": "Bellevue", "country": "United States"}, "updated_at": "2026-02-11T20:27:54.989789+00:00", "region": "Washington", "grade": "High School", "organization": "Exothermic Robotics", "skills": {"combined_score": 190, "rank": 21, "driver": 115, "programming": 75}}, {"number": "2899A", "skills": {"combined_score": 165, "rank": 21, "driver": 87, "programming": 78}, "GSI1PK": "SEASON#197", "region": "California", "grade": "Middle School", "name": "Shooting Stars", "country": "United States", "updated_at": "2026-02-11T20:27:54.056392+00:00", "GSI1SK": "RANK#0021#TEAM#2899A", "SK": "METADATA", "location": {"region": "California", "city": "Arcadia", "country": "United States"}, "PK": "TEAM#2899A", "organization": "Shooting Stars USA Corp."}, {"PK": "TEAM#15442A", "GSI1SK": "RANK#0022#TEAM#15442A", "GSI1PK": "SEASON#197", "region": "California", "number": "15442A", "country": "United States", "SK": "METADATA", "skills": {"combined_score": 189, "rank": 22, "driver": 104, "programming": 85}, "grade": "High School", "location": {"region": "California", "city": "Anaheim", "country": "United States"}, "name": "Capybara", "updated_at": "2026-02-11T20:27:54.996128+00:00", "organization": "CANYON HIGH"}, {"GSI1PK": "SEASON#197", "region": "California", "PK": "TEAM#24580A", "skills": {"combined_score": 165, "rank": 22, "driver": 91, "programming": 74}, "updated_at": "2026-02-11T20:27:54.062319+00:00", "grade": "Middle School", "organization": "AI & Robotics Youth Foundation", "GSI1SK": "RANK#0022#TEAM#24580A", "country": "United States", "number": "24580A", "SK": "METADATA", "location": {"region": "California", "city": "Irvine", "country": "United States"}, "name": "Inferno"}, {"GSI1PK": "SEASON#197", "region": "California", "skills": {"combined_score": 163, "rank": 23, "driver": 90, "programming": 73}, "grade": "Middle School", "updated_at": "2026-02-11T20:27:54.069790+00:00", "country": "United States", "number": "1806S", "SK": "METADATA", "organization": "InoBotics", "name": "Apricity", "location": {"region": "California", "city": "Mountain View", "country": "United States"}, "GSI1SK": "RANK#0023#TEAM#1806S", "PK": "TEAM#1806S"}, {"GSI1PK": "SEASON#197", "PK": "TEAM#2790B", "name": "buh", "skills": {"combined_score": 188, "rank": 23, "driver": 97, "programming": 91}, "GSI1SK": "RANK#0023#TEAM#2790B", "country": "United States", "SK": "METADATA", "updated_at": "2026-02-11T20:27:55.001783+00:00", "region": "Indiana", "location": {"region": "Indiana", "city": "Valparaiso", "country": "United States"}, "organization": "Valparaiso High School", "grade": "High School", "number": "2790B"}, {"location": {"region": "Shanghai", "city": "Shanghai", "country": "China"}, "GSI1PK": "SEASON#197", "country": "China", "grade": "Middle School", "skills": {"combined_score": 163, "rank": 24, "driver": 90, "programming": 73}, "name": "SHSID TEAM Y", "updated_at": "2026-02-11T20:27:54.076152+00:00", "SK": "METADATA", "number": "3219Y", "PK": "TEAM#3219Y", "GSI1SK": "RANK#0024#TEAM#3219Y", "organization": "Shanghai High School International Division", "region": "Shanghai"}, {"name": "Bionic Bruins", "GSI1PK": "SEASON#197", "region": "California", "organization": "BRANHAM HIGH", "country": "United States", "location": {"region": "California", "city": "San Jose", "country": "United States"}, "SK": "METADATA", "updated_at": "2026-02-11T20:27:55.009879+00:00", "skills": {"combined_score": 188, "rank": 24, "driver": 99, "programming": 89}, "grade": "High School", "GSI1SK": "RANK#0024#TEAM#6374B", "PK": "TEAM#6374B", "number": "6374B"}, {"GSI1PK": "SEASON#197", "name": "JOINUS", "GSI1SK": "RANK#0025#TEAM#1791V", "SK": "METADATA", "skills": {"combined_score": 188, "rank": 25, "driver": 101, "programming": 87}, "grade": "High School", "location": {"region": null, "city": "Hsinchu City", "country": "Taiwan"}, "updated_at": "2026-02-11T20:27:55.016424+00:00", "PK": "TEAM#1791V", "number": "1791V", "organization": "Curious X-Lab", "country": "Taiwan", "region": null}, {"skills": {"combined_score": 162, "rank": 25, "driver": 94, "programming": 68}, "name": "HAPPY HIPPO", "GSI1PK": "SEASON#197", "grade": "Middle School", "GSI1SK": "RANK#0025#TEAM#68678M", "location": {"region": null, "city": "Taipei", "country": "Taiwan"}, "SK": "METADATA", "organization": "Fancy Robotics International", "PK": "TEAM#68678M", "updated_at": "2026-02-11T20:27:54.082324+00:00", "country": "Taiwan", "number": "68678M", "region": null}, {"updated_at": "2026-02-11T20:27:54.089826+00:00", "GSI1PK": "SEASON#197", "number": "16699Y", "grade": "Middle School", "country": "United States", "SK": "METADATA", "region": "New York", "PK": "TEAM#16699Y", "skills": {"combined_score": 158, "rank": 26, "driver": 89, "programming": 69}, "name": "Overclock MS", "organization": "Overclock Robotics", "GSI1SK": "RANK#0026#TEAM#16699Y", "location": {"region": "New York", "city": "Flushing", "country": "United States"}}, {"GSI1PK": "SEASON#197", "GSI1SK": "RANK#0026#TEAM#64411B", "country": "United States", "updated_at": "2026-02-11T20:27:55.023199+00:00", "SK": "METADATA", "organization": "STEM SQUAD ROBOTICS", "grade": "High School", "PK": "TEAM#64411B", "location": {"region": "Florida", "city": "Miami", "country": "United States"}, "skills": {"combined_score": 188, "rank": 26, "driver": 101, "programming": 87}, "region": "Florida", "name": "B>U", "number": "64411B"}, {"location": {"region": "Shanghai", "city": "Shanghai", "country": "China"}, "updated_at": "2026-02-11T20:27:55.029821+00:00", "GSI1PK": "SEASON#197", "country": "China", "skills": {"combined_score": 187, "rank": 27, "driver": 97, "programming": 90}, "organization": "Shanghai Hongkou Robotics Club", "SK": "METADATA", "number": "81988B", "grade": "High School", "GSI1SK": "RANK#0027#TEAM#81988B", "PK": "TEAM#81988B", "region": "Shanghai", "name": "Artemis"}, {"updated_at": "2026-02-11T20:27:54.095739+00:00", "organization": "BayBotics", "GSI1PK": "SEASON#197", "region": "California", "number": "88864A", "grade": "Middle School", "GSI1SK": "RANK#0027#TEAM#88864A", "country": "United States", "SK": "METADATA", "skills": {"combined_score": 158, "rank": 27, "driver": 93, "programming": 65}, "PK": "TEAM#88864A", "location": {"region": "California", "city": "Milpitas", "country": "United States"}, "name": "Ape Party"}, {"GSI1PK": "SEASON#197", "skills": {"combined_score": 187, "rank": 28, "driver": 102, "programming": 85}, "GSI1SK": "RANK#0028#TEAM#2623K", "SK": "METADATA", "country": "United Kingdom", "name": "Kingsmen", "updated_at": "2026-02-11T20:27:55.035972+00:00", "number": "2623K", "grade": "High School", "PK": "TEAM#2623K", "organization": "Independent", "location": {"region": null, "city": "Ilford", "country": "United Kingdom"}, "region": null}, {"PK": "TEAM#91233A", "GSI1PK": "SEASON#197", "region": "California", "grade": "Middle School", "number": "91233A", "country": "United States", "updated_at": "2026-02-11T20:27:54.109950+00:00", "organization": "IRVINE RUIGUAN", "SK": "METADATA", "name": "IRVINE RUIGUAN", "location": {"region": "California", "city": "Irvine", "country": "United States"}, "GSI1SK": "RANK#0028#TEAM#91233A", "skills": {"combined_score": 158, "rank": 28, "driver": 98, "programming": 60}}, {"GSI1SK": "RANK#0029#TEAM#1281B", "GSI1PK": "SEASON#197", "region": "California", "PK": "TEAM#1281B", "grade": "Middle School", "country": "United States", "name": "TBD - Radiant", "SK": "METADATA", "location": {"region": "California", "city": "Arcadia", "country": "United States"}, "skills": {"combined_score": 157, "rank": 29, "driver": 83, "programming": 74}, "organization": "Radiant Robot", "updated_at": "2026-02-11T20:27:54.116301+00:00", "number": "1281B"}, {"PK": "TEAM#6219B", "location": {"region": "Wisconsin", "city": "Neenah", "country": "United States"}, "GSI1PK": "SEASON#197", "name": "Rock Em' Sock Em' Robot", "organization": "NEENAH HIGH", "country": "United States", "SK": "METADATA", "GSI1SK": "RANK#0029#TEAM#6219B", "region": "Wisconsin", "grade": "High School", "updated_at": "2026-02-11T20:27:55.041595+00:00", "number": "6219B", "skills": {"combined_score": 186, "rank": 29, "driver": 101, "programming": 85}}, {"GSI1PK": "SEASON#197", "grade": "Middle School", "country": "United States", "organization": "Forge Robotics", "SK": "METADATA", "updated_at": "2026-02-11T20:27:54.122683+00:00", "location": {"region": "Pennsylvania", "city": "Chesterbrook", "country": "United States"}, "number": "1089X", "skills": {"combined_score": 157, "rank": 30, "driver": 88, "programming": 69}, "name": "lunar Forge", "PK": "TEAM#1089X", "GSI1SK": "RANK#0030#TEAM#1089X", "region": "Pennsylvania"}, {"GSI1PK": "SEASON#197", "skills": {"combined_score": 186, "rank": 30, "driver": 102, "programming": 84}, "number": "17022A", "GSI1SK": "RANK#0030#TEAM#17022A", "location": {"region": null, "city": "New Taipei City", "country": "Taiwan"}, "SK": "METADATA", "organization": "Happy Robot", "PK": "TEAM#17022A", "grade": "High School", "updated_at": "2026-02-11T20:27:55.049841+00:00", "name": "Pangolin", "country": "Taiwan", "region": null}, {"name": "Skylight", "organization": "AOE Robotics Club ", "skills": {"combined_score": 154, "rank": 31, "driver": 85, "programming": 69}, "GSI1PK": "SEASON#197", "grade": "Middle School", "updated_at": "2026-02-11T20:27:54.129838+00:00", "country": "United States", "PK": "TEAM#20850S", "SK": "METADATA", "region": "Maryland", "GSI1SK": "RANK#0031#TEAM#20850S", "location": {"region": "Maryland", "city": "Rockville", "country": "United States"}, "number": "20850S"}, {"number": "2597Z", "GSI1PK": "SEASON#197", "country": "China", "GSI1SK": "RANK#0031#TEAM#2597Z", "location": {"region": "Guangdong", "city": "\u6df1\u5733\u5e02", "country": "China"}, "SK": "METADATA", "PK": "TEAM#2597Z", "grade": "High School", "name": "attackercb1106", "updated_at": "2026-02-11T20:27:55.055965+00:00", "skills": {"combined_score": 185, "rank": 31, "driver": 94, "programming": 91}, "region": "Guangdong", "organization": "A\u554a\u62c9\u4e01"}, {"updated_at": "2026-02-11T20:27:55.062002+00:00", "region": "New Jersey", "location": {"region": "New Jersey", "city": "Cedar Grove", "country": "United States"}, "GSI1PK": "SEASON#197", "country": "United States", "skills": {"combined_score": 185, "rank": 32, "driver": 100, "programming": 85}, "SK": "METADATA", "grade": "High School", "organization": "CEDAR GROVE HIGH SCHOOL", "GSI1SK": "RANK#0032#TEAM#59218B", "number": "59218B", "name": "Cedar  Grove Panthers", "PK": "TEAM#59218B"}, {"GSI1PK": "SEASON#197", "country": "China", "grade": "Middle School", "updated_at": "2026-02-11T20:27:54.136045+00:00", "GSI1SK": "RANK#0032#TEAM#81988W", "location": {"region": "Shanghai", "city": "\u4e0a\u6d77Shanghai", "country": "China"}, "SK": "METADATA", "number": "81988W", "skills": {"combined_score": 153, "rank": 32, "driver": 78, "programming": 75}, "PK": "TEAM#81988W", "name": "81988w", "organization": "\u8679\u53e3\u673a\u5668\u4eba\u793eHongkou Robotics Club", "region": "Shanghai"}, {"GSI1PK": "SEASON#197", "region": "Ohio", "updated_at": "2026-02-11T20:27:55.069809+00:00", "PK": "TEAM#2011F", "country": "United States", "SK": "METADATA", "GSI1SK": "RANK#0033#TEAM#2011F", "number": "2011F", "grade": "High School", "name": "FaZe Clan", "location": {"region": "Ohio", "city": "Broadview Heights", "country": "United States"}, "organization": "BRECKSVILLE-BROADVIEW HEIGHTS HIGH SCHOOL", "skills": {"combined_score": 184, "rank": 33, "driver": 86, "programming": 98}}, {"organization": "Hefei No.38 middle school", "name": "Hefei No.38 MS A", "GSI1PK": "SEASON#197", "country": "China", "grade": "Middle School", "region": "Anhui", "SK": "METADATA", "location": {"region": "Anhui", "city": "Hefei", "country": "China"}, "number": "38000A", "updated_at": "2026-02-11T20:27:54.142336+00:00", "GSI1SK": "RANK#0033#TEAM#38000A", "skills": {"combined_score": 153, "rank": 33, "driver": 81, "programming": 72}, "PK": "TEAM#38000A"}, {"organization": "1698", "number": "1698V", "GSI1PK": "SEASON#197", "region": "California", "country": "United States", "location": {"region": "California", "city": "San Jose", "country": "United States"}, "name": "Power Beans", "SK": "METADATA", "grade": "High School", "GSI1SK": "RANK#0034#TEAM#1698V", "PK": "TEAM#1698V", "skills": {"combined_score": 184, "rank": 34, "driver": 94, "programming": 90}, "updated_at": "2026-02-11T20:27:55.075599+00:00"}, {"GSI1PK": "SEASON#197", "number": "3150N", "grade": "Middle School", "SK": "METADATA", "country": "Canada", "location": {"region": "Ontario", "city": "Richmond Hill", "country": "Canada"}, "skills": {"combined_score": 153, "rank": 34, "driver": 85, "programming": 68}, "region": "Ontario", "updated_at": "2026-02-11T20:27:54.149791+00:00", "PK": "TEAM#3150N", "GSI1SK": "RANK#0034#TEAM#3150N", "organization": "Silver Owl Robotics Club", "name": "Nighthawks"}, {"region": "New Jersey", "PK": "TEAM#4610Z", "GSI1PK": "SEASON#197", "name": "Zenith: Robot Rev", "organization": "Robot Revolution", "country": "United States", "SK": "METADATA", "grade": "High School", "skills": {"combined_score": 184, "rank": 35, "driver": 91, "programming": 93}, "location": {"region": "New Jersey", "city": "Summit", "country": "United States"}, "updated_at": "2026-02-11T20:27:55.081857+00:00", "GSI1SK": "RANK#0035#TEAM#4610Z", "number": "4610Z"}, {"GSI1PK": "SEASON#197", "region": "California", "updated_at": "2026-02-11T20:27:54.155896+00:00", "skills": {"combined_score": 151, "rank": 35, "driver": 80, "programming": 71}, "GSI1SK": "RANK#0035#TEAM#68699A", "grade": "Middle School", "country": "United States", "name": "Driving Nuggets", "organization": "Ustar STEM Lab", "location": {"region": "California", "city": "San Jose", "country": "United States"}, "SK": "METADATA", "PK": "TEAM#68699A", "number": "68699A"}, {"GSI1PK": "SEASON#197", "region": "California", "grade": "Middle School", "updated_at": "2026-02-11T20:27:54.161899+00:00", "number": "19091A", "location": {"region": "California", "city": "Palo Alto", "country": "United States"}, "country": "United States", "SK": "METADATA", "GSI1SK": "RANK#0036#TEAM#19091A", "PK": "TEAM#19091A", "name": "Smilodon", "organization": "Smilodon", "skills": {"combined_score": 149, "rank": 36, "driver": 85, "programming": 64}}, {"GSI1SK": "RANK#0036#TEAM#8682A", "GSI1PK": "SEASON#197", "number": "8682A", "country": "United States", "updated_at": "2026-02-11T20:27:55.089966+00:00", "organization": "Newton College and Career Academy", "SK": "METADATA", "name": "Apollo", "grade": "High School", "skills": {"combined_score": 184, "rank": 36, "driver": 98, "programming": 86}, "region": "Georgia", "PK": "TEAM#8682A", "location": {"region": "Georgia", "city": "Covington", "country": "United States"}}, {"skills": {"combined_score": 183, "rank": 37, "driver": 98, "programming": 85}, "region": "Colorado", "GSI1PK": "SEASON#197", "country": "United States", "SK": "METADATA", "updated_at": "2026-02-11T20:27:55.096132+00:00", "PK": "TEAM#1069A", "organization": "Berthoud Robotics", "grade": "High School", "GSI1SK": "RANK#0037#TEAM#1069A", "name": "After Hours", "number": "1069A", "location": {"region": "Colorado", "city": "Berthoud", "country": "United States"}}, {"GSI1PK": "SEASON#197", "PK": "TEAM#44A", "country": "China", "GSI1SK": "RANK#0037#TEAM#44A", "grade": "Middle School", "updated_at": "2026-02-11T20:27:54.169777+00:00", "location": {"region": "Shanghai", "city": "\u4e0a\u6d77", "country": "China"}, "number": "44A", "SK": "METADATA", "name": "Last Dance", "organization": "\u4e0a\u6d77\u5e02\u4e16\u754c\u5916\u56fd\u8bed\u4e2d\u5b66", "skills": {"combined_score": 149, "rank": 37, "driver": 86, "programming": 63}, "region": "Shanghai"}, {"name": "TenTon Robotics", "skills": {"combined_score": 183, "rank": 38, "driver": 102, "programming": 81}, "organization": "West Vancouver School District #45", "number": "1010G", "GSI1PK": "SEASON#197", "GSI1SK": "RANK#0038#TEAM#1010G", "SK": "METADATA", "PK": "TEAM#1010G", "country": "Canada", "grade": "High School", "location": {"region": "British Columbia", "city": "West Vancouver", "country": "Canada"}, "updated_at": "2026-02-11T20:27:55.102234+00:00", "region": "British Columbia"}, {"region": "Zhejiang", "GSI1PK": "SEASON#197", "country": "China", "grade": "Middle School", "PK": "TEAM#2731P", "updated_at": "2026-02-11T20:27:54.175665+00:00", "name": "Rainstorm VEX Team", "SK": "METADATA", "number": "2731P", "GSI1SK": "RANK#0038#TEAM#2731P", "organization": "Qing'shao'niang, Shangcheng District, Hangzhou", "skills": {"combined_score": 148, "rank": 38, "driver": 80, "programming": 68}, "location": {"region": "Zhejiang", "city": "Hangzhou City", "country": "China"}}, {"GSI1PK": "SEASON#197", "number": "1028A", "GSI1SK": "RANK#0039#TEAM#1028A", "skills": {"combined_score": 182, "rank": 39, "driver": 92, "programming": 90}, "updated_at": "2026-02-11T20:27:55.109831+00:00", "country": "United States", "PK": "TEAM#1028A", "name": "WASHED", "SK": "METADATA", "location": {"region": "Nebraska", "city": "Omaha", "country": "United States"}, "grade": "High School", "organization": "Brownell Talbot College Preparatory School", "region": "Nebraska"}, {"updated_at": "2026-02-11T20:27:54.181485+00:00", "GSI1PK": "SEASON#197", "PK": "TEAM#89089Y", "grade": "Middle School", "location": {"region": null, "city": "Zhubei City, Hsinchu County", "country": "Taiwan"}, "number": "89089Y", "SK": "METADATA", "organization": "Pacific American School--Middle School", "GSI1SK": "RANK#0039#TEAM#89089Y", "skills": {"combined_score": 148, "rank": 39, "driver": 97, "programming": 51}, "name": "Muffin", "country": "Taiwan", "region": null}, {"GSI1PK": "SEASON#197", "grade": "Middle School", "PK": "TEAM#16689D", "country": "United States", "SK": "METADATA", "GSI1SK": "RANK#0040#TEAM#16689D", "region": "Oregon", "location": {"region": "Oregon", "city": "Portland", "country": "United States"}, "name": "Dracobots/FireBirds", "updated_at": "2026-02-11T20:27:54.189861+00:00", "organization": "Dracobots", "number": "16689D", "skills": {"combined_score": 148, "rank": 40, "driver": 90, "programming": 58}}, {"GSI1PK": "SEASON#197", "GSI1SK": "RANK#0040#TEAM#66994D", "organization": "Dr. Player Robotic Lab . Taichung", "SK": "METADATA", "location": {"region": null, "city": "Taichung City", "country": "Taiwan"}, "updated_at": "2026-02-11T20:27:55.115522+00:00", "name": "Gigantic Marshmallow", "grade": "High School", "skills": {"combined_score": 182, "rank": 40, "driver": 97, "programming": 85}, "number": "66994D", "PK": "TEAM#66994D", "country": "Taiwan", "region": null}, {"organization": "Irvine Robotics", "GSI1PK": "SEASON#197", "region": "California", "grade": "Middle School", "PK": "TEAM#2499V", "country": "United States", "SK": "METADATA", "skills": {"combined_score": 147, "rank": 41, "driver": 75, "programming": 72}, "number": "2499V", "GSI1SK": "RANK#0041#TEAM#2499V", "location": {"region": "California", "city": "Irvine", "country": "United States"}, "updated_at": "2026-02-11T20:27:54.195595+00:00", "name": "Vortex"}, {"name": "\u897f\u5b89\u5e02\u94c1\u4e00\u4e2d\u5b66A\u961f", "GSI1PK": "SEASON#197", "country": "China", "GSI1SK": "RANK#0041#TEAM#54001A", "SK": "METADATA", "updated_at": "2026-02-11T20:27:55.124410+00:00", "grade": "High School", "skills": {"combined_score": 182, "rank": 41, "driver": 98, "programming": 84}, "PK": "TEAM#54001A", "location": {"region": "Shaanxi", "city": "Xi'an", "country": "China"}, "organization": "Xi'an TieYi Highschool", "number": "54001A", "region": "Shaanxi"}, {"updated_at": "2026-02-11T20:27:54.201556+00:00", "GSI1PK": "SEASON#197", "grade": "Middle School", "location": {"region": "Michigan", "city": "Troy", "country": "United States"}, "name": "Phantom", "country": "United States", "number": "1829A", "SK": "METADATA", "organization": "Independent", "PK": "TEAM#1829A", "GSI1SK": "RANK#0042#TEAM#1829A", "skills": {"combined_score": 147, "rank": 42, "driver": 79, "programming": 68}, "region": "Michigan"}, {"GSI1PK": "SEASON#197", "skills": {"combined_score": 181, "rank": 42, "driver": 99, "programming": 82}, "GSI1SK": "RANK#0042#TEAM#5069Y", "country": "United States", "number": "5069Y", "SK": "METADATA", "name": "Havoc", "organization": "Millard North High School", "location": {"region": "Nebraska", "city": "Omaha", "country": "United States"}, "grade": "High School", "PK": "TEAM#5069Y", "updated_at": "2026-02-11T20:27:55.134616+00:00", "region": "Nebraska"}, {"GSI1PK": "SEASON#197", "organization": "HF MS No.50", "country": "China", "name": "X-Swordman", "grade": "Middle School", "region": "Anhui", "number": "55555C", "updated_at": "2026-02-11T20:27:54.209816+00:00", "SK": "METADATA", "PK": "TEAM#55555C", "location": {"region": "Anhui", "city": "hefei", "country": "China"}, "skills": {"combined_score": 145, "rank": 43, "driver": 67, "programming": 78}, "GSI1SK": "RANK#0043#TEAM#55555C"}, {"region": "South Carolina", "GSI1PK": "SEASON#197", "organization": "West Ashley Center for Advanced Studies", "skills": {"combined_score": 180, "rank": 43, "driver": 84, "programming": 96}, "GSI1SK": "RANK#0043#TEAM#9623W", "country": "United States", "SK": "METADATA", "number": "9623W", "grade": "High School", "updated_at": "2026-02-11T20:27:55.140164+00:00", "location": {"region": "South Carolina", "city": "Charleston", "country": "United States"}, "name": "Lucky Charms", "PK": "TEAM#9623W"}, {"updated_at": "2026-02-11T20:27:54.215512+00:00", "GSI1PK": "SEASON#197", "grade": "Middle School", "country": "Vietnam", "location": {"region": null, "city": "Hanoi", "country": "Vietnam"}, "SK": "METADATA", "PK": "TEAM#15167A", "GSI1SK": "RANK#0044#TEAM#15167A", "skills": {"combined_score": 145, "rank": 44, "driver": 83, "programming": 62}, "number": "15167A", "name": "SWITCH", "organization": "Brighton College Vietnam", "region": null}, {"GSI1PK": "SEASON#197", "name": "Shadow", "location": {"region": null, "city": "Singapore", "country": "Singapore"}, "SK": "METADATA", "skills": {"combined_score": 180, "rank": 44, "driver": 100, "programming": 80}, "number": "8076X", "PK": "TEAM#8076X", "grade": "High School", "GSI1SK": "RANK#0044#TEAM#8076X", "organization": "Hwa Chong Institution", "country": "Singapore", "updated_at": "2026-02-11T20:27:55.155016+00:00", "region": null}, {"GSI1PK": "SEASON#197", "country": "China", "PK": "TEAM#54008A", "location": {"region": "Shaanxi", "city": "Xian", "country": "China"}, "grade": "Middle School", "number": "54008A", "SK": "METADATA", "name": "TIEYI MS-A", "GSI1SK": "RANK#0045#TEAM#54008A", "updated_at": "2026-02-11T20:27:54.221078+00:00", "skills": {"combined_score": 144, "rank": 45, "driver": 77, "programming": 67}, "organization": "XIAN TIEYI MS", "region": "Shaanxi"}, {"name": "99%", "GSI1PK": "SEASON#197", "number": "8889A", "country": "United States", "SK": "METADATA", "grade": "High School", "updated_at": "2026-02-11T20:27:55.160953+00:00", "skills": {"combined_score": 179, "rank": 45, "driver": 90, "programming": 89}, "region": "Massachusetts", "organization": "Numberosity Academy", "location": {"region": "Massachusetts", "city": "Lexington", "country": "United States"}, "GSI1SK": "RANK#0045#TEAM#8889A", "PK": "TEAM#8889A"}, {"GSI1PK": "SEASON#197", "location": {"region": "New York", "city": "Buchanan", "country": "United States"}, "number": "70407R", "GSI1SK": "RANK#0046#TEAM#70407R", "country": "United States", "name": "Refraction", "SK": "METADATA", "PK": "TEAM#70407R", "region": "New York", "grade": "High School", "organization": "Meahagh Robotics", "updated_at": "2026-02-11T20:27:55.167190+00:00", "skills": {"combined_score": 179, "rank": 46, "driver": 92, "programming": 87}}, {"GSI1PK": "SEASON#197", "region": "California", "grade": "Middle School", "country": "United States", "organization": "ORCHARD HILLS", "updated_at": "2026-02-11T20:27:54.229807+00:00", "number": "8838B", "SK": "METADATA", "skills": {"combined_score": 144, "rank": 46, "driver": 79, "programming": 65}, "PK": "TEAM#8838B", "location": {"region": "California", "city": "Irvine", "country": "United States"}, "GSI1SK": "RANK#0046#TEAM#8838B", "name": "Robohawks - Century"}, {"number": "28176N", "GSI1PK": "SEASON#197", "name": "Overwatch", "country": "Vietnam", "location": {"region": null, "city": "Hanoi", "country": "Vietnam"}, "SK": "METADATA", "grade": "High School", "skills": {"combined_score": 179, "rank": 47, "driver": 97, "programming": 82}, "PK": "TEAM#28176N", "GSI1SK": "RANK#0047#TEAM#28176N", "organization": "Newton Robotics Club", "updated_at": "2026-02-11T20:27:55.173143+00:00", "region": null}, {"GSI1PK": "SEASON#197", "country": "China", "updated_at": "2026-02-11T20:27:54.235507+00:00", "location": {"region": "Shaanxi", "city": "Xian", "country": "China"}, "grade": "Middle School", "SK": "METADATA", "name": "XIAN FULUN MS", "organization": "XIAN FULUN MS", "number": "54009A", "GSI1SK": "RANK#0047#TEAM#54009A", "PK": "TEAM#54009A", "skills": {"combined_score": 144, "rank": 47, "driver": 83, "programming": 61}, "region": "Shaanxi"}, {"updated_at": "2026-02-11T20:27:54.241549+00:00", "region": "Zhejiang", "GSI1PK": "SEASON#197", "country": "China", "organization": "Hangzhou Dipont School of Arts and Science", "grade": "Middle School", "SK": "METADATA", "skills": {"combined_score": 144, "rank": 48, "driver": 87, "programming": 57}, "PK": "TEAM#2731K", "name": "Hangzhou Dipont School of Arts and Science", "number": "2731K", "location": {"region": "Zhejiang", "city": "Hangzhou", "country": "China"}, "GSI1SK": "RANK#0048#TEAM#2731K"}, {"region": "Colorado", "location": {"region": "Colorado", "city": "Thornton", "country": "United States"}, "GSI1PK": "SEASON#197", "GSI1SK": "RANK#0048#TEAM#32092G", "country": "United States", "updated_at": "2026-02-11T20:27:55.178769+00:00", "skills": {"combined_score": 179, "rank": 48, "driver": 98, "programming": 81}, "SK": "METADATA", "name": "Mile High Mechanics", "grade": "High School", "organization": "Stargate Charter School", "PK": "TEAM#32092G", "number": "32092G"}, {"PK": "TEAM#1523E", "GSI1PK": "SEASON#197", "name": "Everytime", "number": "1523E", "grade": "Middle School", "country": "United States", "updated_at": "2026-02-11T20:27:54.249777+00:00", "organization": "Steamoji Robotics", "SK": "METADATA", "location": {"region": "Washington", "city": "Bellevue", "country": "United States"}, "region": "Washington", "GSI1SK": "RANK#0049#TEAM#1523E", "skills": {"combined_score": 143, "rank": 49, "driver": 101, "programming": 42}}, {"GSI1PK": "SEASON#197", "skills": {"combined_score": 179, "rank": 49, "driver": 101, "programming": 78}, "SK": "METADATA", "GSI1SK": "RANK#0049#TEAM#78181A", "grade": "High School", "location": {"region": null, "city": "Hsinchu City", "country": "Taiwan"}, "name": "Genesis", "updated_at": "2026-02-11T20:27:55.185101+00:00", "number": "78181A", "organization": "IBSH-Curious Robotics", "PK": "TEAM#78181A", "country": "Taiwan", "region": null}, {"number": "4253S", "GSI1PK": "SEASON#197", "PK": "TEAM#4253S", "location": {"region": null, "city": "Taipei", "country": "Taiwan"}, "GSI1SK": "RANK#0050#TEAM#4253S", "SK": "METADATA", "organization": "Taipei American School", "updated_at": "2026-02-11T20:27:55.195233+00:00", "grade": "High School", "skills": {"combined_score": 178, "rank": 50, "driver": 87, "programming": 91}, "country": "Taiwan", "name": "Raid Zero S", "region": null}, {"organization": "RoboPlanet Education and Community Society", "GSI1PK": "SEASON#197", "skills": {"combined_score": 142, "rank": 50, "driver": 87, "programming": 55}, "grade": "Middle School", "location": {"region": "British Columbia", "city": "Richmond", "country": "Canada"}, "SK": "METADATA", "GSI1SK": "RANK#0050#TEAM#9568V", "country": "Canada", "name": "Voltage", "updated_at": "2026-02-11T20:27:54.255558+00:00", "region": "British Columbia", "number": "9568V", "PK": "TEAM#9568V"}]
